{
  "type": "FeatureCollection",
  "features": [
    {
      "type": "Feature",
      "properties": {
        "LocationType": "Restroom Location",
        "Id": "cal-anderson-park"
      },
      "geometry": {
        "type": "Point",
        "coordinates": [ -122.31917696085239, 47.616484996832526 ]
      }
    },
    {
      "type": "Feature",
      "properties": {
        "LocationType": "Restroom",
        "Id": "cloudburst-brewing-ballard"
      },
      "geometry": {
        "type": "Point",
        "coordinates": [ -122.34184127838036, 47.62111120344604 ]
      }
    },
    {
      "type": "Feature",
      "properties": {
        "LocationType": "Restroom",
        "Id": "columbia-tower-club"
      },
      "geometry": {
        "type": "Point",
        "coordinates": [ -122.33047962238933, 47.60450164251074 ]
      }
    },
    {
      "type": "Feature",
      "properties": {
        "LocationType": "restroom",
        "Id": "la-dive-bar"
      },
      "geometry": {
        "type": "Point",
        "coordinates": [ -122.32246138226097, 47.61394972733521 ]
      }
    },
    {
      "type": "Feature",
      "properties": {
        "LocationType": "restroom",
        "Id": "life-on-mars"
      },
      "geometry": {
        "type": "Point",
        "coordinates": [ -122.34184127838036, 47.62111120344604 ]
      }
    },
    {
      "type": "Feature",
      "properties": {
        "LocationType": "restroom",
        "Id": "seattle-central-college"
      },
      "geometry": {
        "type": "Point",
        "coordinates": [ -122.31934863592895, 47.6100593154292 ]
      }
    },
    {
      "type": "Feature",
      "properties": {
        "LocationType": "restroom",
        "Id": "starbucks-reserve"
      },
      "geometry": {
        "type": "Point",
        "coordinates": [ -122.32832872642577, 47.614035476652816 ]
      }
    },
    {
      "type": "Feature",
      "properties": {
        "LocationType": "restroom",
        "Id": "u-village"
      },
      "geometry": {
        "type": "Point",
        "coordinates": [ -122.29755297084812, 47.663471284436326 ]
      }
    },
    {
      "type": "Feature",
      "properties": {
        "LocationType": "restroom",
        "Id": "stoup-brewing-cap-hill"
      },
      "geometry": {
        "type": "Point",
        "coordinates": [ -122.3205461355618, 47.61281682220044 ]
      }
    },
    {
      "type": "Feature",
      "properties": {
        "LocationType": "Bench Location",
        "Id": "arboretum-bench"
      },
      "geometry": {
        "type": "Point",
        "coordinates": [ -122.29710286011866, 47.63953342797144 ]
      }
    },
    {
      "type": "Feature",
      "properties": {
        "LocationType": "Other",
        "Id": "Aquarium"
      },
      "geometry": {
        "type": "Point",
        "coordinates": [-122.34269000000008, 47.607582118505746]
      }
    }
  ]
}
